name,lat,lng,damage
เดอะ ลอฟท์ เย็นอากาศ,13.70873088,100.545616,1
บ้านปิยะสาธร,13.72273687,100.5374037,1
Belvedere Rama 3,13.68676756,100.5287034,1
โครงการเดอะสตาร์ เอสเตท แอท พระราม3,13.67480654,100.5347676,1
คอนโดวันสาทร? ซ.เย็นอากาศ?2,13.71252603,100.5490408,1
Family Town (แฟมมิลี่ ทาวน์) ซอยอินทามระ 29,13.79214778,100.5591081,1
Family Complex (แฟมมิลี่ คอมเพล็กซ์) ซอยอินทามระ 29,13.79131824,100.5592514,1
Royal Tower 3 (รอแยล ทาวเวอร์ 3),13.79195927,100.5587529,1
สะพานควาย คอนโดมิเนียม ประดิพัทธ์ 23,13.79178082,100.5475135,1
Life @ Phahon-Ari,13.78937447,100.5475709,1
QUINTARA MHy'GEN RATCHADA - HUAI KHWANG,13.77588025,100.5743622,1
Diamond Ratchada (ไดมอนด์ รัชดา),13.77591671,100.5745198,1
KnightsBridge Space - ไนท์บริดจ์ สเปซ พระราม 9,13.75652595,100.5617878,1
พาโนวิลล์ คอนโดมิเนียม (Pano Ville Condominium),13.80075089,100.5738577,1
IDEO Ratchada - Sutthisan (ไอดีโอ รัชดา - สุทธิสาร),13.79003522,100.5700823,1
คอนโด กลางกรุงรีสอร์ท B1-B4,13.77455453,100.5695803,1
คอนโด เมโทร สกาย รัชดา,13.78441094,100.5712318,1
คอนโด ชาโตว์ อินทาว์ รัชดา 13-1 และ 13-2,13.78262922,100.5711487,1
แฟลตดินแดง 8 ชั้น,13.75904927,100.5533239,1
คอนโดชาโตว์อินทาวน์รัชดา 19,13.79949148,100.5738691,1
Socio Inthamara : โซซิโอ อินทามระ,13.78890911,100.5523738,1
เดอะ โมเมนต์ รัชดา 19,13.79717349,100.5718239,1
อาคาร อดามาส พหลโยธิน คอนโดมิเนียม,13.78028917,100.5390203,1
สมาคมคนตาบอดแห่งประเทศไทย,13.76632006,100.5480042,1
คอนโด เดอะฟ้า อารีย์ 4,13.78313692,100.5424057,1
คอนโด วิชแอดสยาม,13.75241503,100.528013,1
คอนโดกลางกรุง รีสอร์ท อาคาร A1,13.7749531,100.5692846,1
คอนโดซิลค์ พหลโยธิน 9,13.78771541,100.5436995,1
Sense Phaholyothin (เซนส์ พหลโยธิน),13.78974026,100.5523044,1
Chewathai Interchange คอนโดชีวาทัย อินเตอร์เชนจ์,13.80724079,100.5294285,1
Chapter one Mid Town Ladprao 24 แชปเตอร์วัน มิดทาวน์,13.80719522,100.5731074,1
Premio Quinto (พรีมิโอ ควินโต),13.83629176,100.572913,1
Life Ladprao : ไลฟ์ ลาดพร้าว,13.81790538,100.563228,1
Wire Ratchada 19 (คอนโด ไวร์ รัชดา 19),13.80074898,100.5734477,1
ลุมพินีเพลส เตาปูน อินเตอร์เชนจ์,13.80887166,100.5306426,1
พาร์ค เรสซิเด้นซ์ แอทพหล (residence พหลโยธิน 67),13.889927,100.5989625,1
คอนโดเอ็มเฮอริเทจ พหลโยธิน59,13.88661956,100.5946642,1
อาคาร บราวน์ หพลโยธิน 67,13.88742022,100.6025982,1
อาคาร รามา จิวเวลรี่,13.72300824,100.5194973,1
อาคาร สีดา,13.72332003,100.5191797,1
Fairview Tower (แฟร์วิว ทาวเวอร์),13.73284544,100.5637717,1
The rise สุขุมวิท39,13.73672427,100.572982,1
อาคารชุด 59 เฮอริเทจ,100.5815498,13.7248456,1
ไดมอนด์ทาวเวอร์ สีลม,13.7256468,100.5299635,1
คอนโดอรุณโรจน์นิมิตร 31,13.73370519,100.5639713,1
โรงแรมไลฟ์ สุขุมวิท 8 แบงค็อก (lyf Sukhumvit 8 Bangkok),13.74017292,100.5568762,1
โครงการ เดอะเรสซิเดนเซส 38 (คอนโดมิเนี่ยม),13.71768975,100.5795804,1
Ascott Thonglor Bangkok,13.72336525,100.5820837,1
อาคารเอช สุขุมวิท 43 คอนโดมิเนียม,13.73368098,100.5739021,1
คอนโดบ้านสิริทเวนตี้โฟร์,13.72698549,100.5672118,1
Somerset Sukhumvit 71,13.73763364,100.5978254,1
คอนโด คิว ประสานมิตร,13.74415509,100.568761,1
เดอะเน็กซ์  การ์เด้นท์  สูท,13.70456815,100.5989019,1
อาคาร Liberty Park condominium,13.74235506,100.5646598,1
คอนโด ควินทารา ภูมิ สุขุมวิท 39,13.7448937,100.5740487,1
อาคาร โนเบิล ซีโรไนน์,13.74130265,100.5497134,1
อาคาร serio สุขุมวิท 50,13.7059443,100.5971435,1
อาคาร ลาเมซอง ร่วมฤดี,13.7398172,100.5502527,1
the origin ram209,13.8119233,100.7331513,1
อาคารชุดลุมพินี เซ็นเตอร์ นวมินทร์,13.77910109,100.6436321,1
โครงการพลัมคอนโดสะพานใหม่ Station ซอยพหลโยธิน 52,13.89460186,100.6130636,1
อาคารคอนโด COMMON TU,14.0665488,100.6146242,1
"""ซอย 23 คลองหกตะวันตก บ.13/11 หมู่4",14.07331045,100.7302831,1
บ้านพักอาศัย 2 ชั้น เลขที่ 20/102 หมู่ 6 ซอยสุสวาท 8 ต.ลาดสวาย อ.ลำลูกกา จ.ปทุมธานี,13.97450165,100.6900824,1
69/359 หมู่ 3 หมู่บ้านฟ้ารังสิต อ.ธัญบุรี จ.ปทุมธานี,13.99752564,100.6947507,1
โรงเรียนกวดวิชา Super Genius,13.99128256,100.6023215,1
คอนโดหมู่บ้านบัณฑิตอินเตอร์ทาว์น ,13.96339725,100.6519283,1
บ้าน คุณสมัย หมู่บ้านพฤกษา67 เลขที่ 67/478 หมู่6 ต.คูคต อ.ลำลูกกา จ.ปทุมธานี,13.97396343,100.6517579,1
อาคาร เจคอนโด พระราม2 อาคารเอ,13.66273002,100.4337856,1
"""บริษัทอาร์ บี เอส แมนูแฟคตอริ่ง จำกัด ที่อยู่ 31/2-3 หมู่ 17 ต.บางเสาธง อ.บางเสาธง จ.สมุทรปราการ""",13.63931784,100.7957761,1
เดอะ เพรสซิเด้นท์ สุขุมวิท สมุทรปราการ,13.58568611,100.6093879,1
คอนโดบ้านเทพารักษ์ 2 (อาคาร 4),13.62449192,100.6298372,1
อาคารชุด จี เฮาส์ คอนโดมิเนียม,13.65289633,100.6034384,1
โรงเรียนพนัสศึกษาลัย,13.45005871,101.1723239,1
บ้านเอื้ออาทรข้างนิคมอุตสาหกรรมสมุทรสาคร,13.55336167,100.2436067,1
คอนโดทิวลิปสแควร์ ต.อ้อมน้อย อ.กระทุ่มแบน จ.สมุทรสาคร,13.70566342,100.3213792,1
โรงเรียนสารสาสน์วิเทศสมุทรสาคร,13.52091845,100.1802071,1
"บ.แพนฟู้ด จำกัด ท่าทราย อาคาร 1,2,5",13.56689839,100.2597442,1
หมู่บ้านชนันธร (คุณโฉมฉาย เลขที่ 241 ซอย 9),13.56237165,100.2669608,1
อาคารเอื้ออาทรติดนิคมสมุทรสาคร,13.55328245,100.2428137,1
บริษัท ลีวัฒนา พุทธภัณฑ์ จำกัด,13.79996298,100.2814064,1
คอนโดลุมพินีวิลล์ แจ้งวัฒนะ-ปากเกร็ด,13.91096684,100.5022325,1
The plum condo คลองถนน,13.90196817,100.4057515,1
คอนโด Aliss ติวานนท์ (ทั้งสองตึก),13.85501522,100.519623,1
พลัมคอนโด บางใหญ่,13.88963242,100.4059893,1
The Midd Condo Bangyai : เดอะ มิดด์ คอนโดมิเนียม,13.88372819,100.4099945,1
คอนโดลุมพินีพาร์ค รัตนาธิเบศร์,13.86371125,100.5028656,1
คอนโดลุมพินี นครอินทร์-พระราม 5,13.83753012,100.5045443,1
Tararin Chaophaya (ธารารินทร์ เจ้าพระยา ),13.87236154,100.4814945,1
บ้านสุขปรีดาเรสซิเด้นท์,13.87623585,100.4460964,1
อันนา คอนโด บางพลู,13.85484162,100.4386326,1
Rhythm Phahon-Ari,13.78914515,100.5453533,2
Niche Pride Taopoon-Interchange : นิช ไพรด์ เตาปูน-อินเตอร์,13.80623897,100.5341945,2
คอนโด ยู เกษตร-นวมินทร์,13.85067388,100.6061628,2
บ้านเลขที่ 37 เคหะร่วมเกล้า,13.78130803,100.7146881,2
นิช โมโน เมกะ สเปซ บางนา,13.65876413,100.6594241,2
คอนโดคาซ่า ฟรานซ์ เอแบค บางนา,13.59249865,100.8294442,2
โรงพยาบาลสมุทรสาคร,13.5514167,100.2799361,2
หจก.บางกอกแสงไทย,13.70857532,100.2941437,2
เอกสินเพลส คอนโด,13.85794297,100.5267265,2
The Parkland งามวงศ์วาน-แคราย,13.85983123,100.5220557,2
บ้านเลขที่ 8 ซอยสามัคคี 60/8 ,13.87806944,100.5453565,2
The Trust Residence Ratchada-Rama 3,13.69451788,100.5360148,3
โรงพยาบาลราชวิถี อาคารทศมินทร์ 25 ,13.76450065,100.5368259,3
อาคารเคพีเอ็น พระราม 9,13.75537188,100.5866277,3
คลังสินค้า Caldic,13.54451614,100.7845055,3
Lapa Place (ลพา เพลส),13.71219569,100.5468234,1
Family Town (แฟมมิลี่ ทาวน์) ซอยอิFamily Town (แฟมมิลี่ ทาวน์) ซอยอินทามระ 29นทามระ 29,13.79193232,100.5592961,1
Maison De Ville (เมซอง เดอ วิลล์) ,13.79219682,100.5477171,1
"QUINTARA MHy'GEN RATCHADA - HUAI KHWANG 
",13.77502599,100.5745339,1
อาคารชุดดินแดง 3 อาคาร 4 ,13.75707739,100.5527735,1
คอนโด เดอะ คริส 2 รัชดา 17 ,13.7874545,100.5715654,1
เดอะ คริส 7 รัชดา 17,13.78709696,100.5715785,1
Socio Inthamara : โซซิโอ อินทามระ ,13.78856546,100.5527923,1
รัชดา คอนโดมิเนียม,13.76666498,100.562656,1
โรงพยาบาลเซเปี้ยนซ์ ,13.76996696,100.6027085,1
Premio Quinto (พรีมิโอ ควินโต) ,13.83557168,100.5733004,1
Wire Ratchada 19 (คอนโด ไวร์ รัชดา 19) ,13.80082378,100.5734243,1
โรงพบาบาลเกษมราษฎร์ ประชาชื่น,13.83198775,100.5388667,1
พาร์ค เรสซิเด้นซ์ แอทพหล  (residence พหลโยธิน 67),13.88961009,100.599269,1
"อาคาร รามา จิวเวลรี่, อาคาร สีดา",13.72313497,100.5191627,1
Top View Tower (ท็อป วิว ทาวเวอร์),13.72493874,100.5818114,1
Sync Nature Siam (ซิงค์ เนเจอร์ สยาม),13.74833964,100.5273944,1
อาคารพาณิชย์ของ นานาเตรท (Roxerina Silver Jewelry),13.72742142,100.5154086,1
บ้านเลขที่ 37 เคหะร่วมเกล้า 78แยก1 ถนนเคหะร่มเกล้า,13.77646946,100.7094914,1
อาคารชุดลุมพินี เซ็นเตอร์ นวมินทร์ ,13.77984111,100.6427631,1
Cocoon Rama 9 โคคูน พระราม 9,13.74945265,100.6364415,1
ดิ เอ็กเซล อุดมสุข,13.67982597,100.6242691,1
เทพมงคลคอนโด,13.76024537,100.6487627,1
เดอะวัน พลัสแกรดน์ รามคำแหง,13.7530859,100.6368607,1
ซอย 23 คลองหกตะวันตก บ.13/11 หมู่4,14.06291792,100.7292413,1
บ้านพักอาศัย 2 ชั้น เลขที่ 20/102 หมู่ 6 ซอยสุสวาท 8 ต.ลาดสวาย อ.ลำลูกกา จ.ปทุมธานี ,13.97457453,100.690002,1
69/359 หมู่ 3 หมู่บ้านฟ้ารังสิต อ.ธัญบุรี จ.ปทุมธานี ,13.99741113,100.6947132,1
โรงเรียนกวดวิชา Super Genius ,13.99080388,100.6032228,1
คอนโดหมู่บ้านบัณฑิตอินเตอร์ทาว์น,13.96300351,100.6509063,1
บริษัท เพาเวอร์ วิชั่น กรุ๊ป จำกัด,13.99090739,100.6033978,1
20/102 หมู่ 6 ซอยสุสวาท 8 ลาดสวาย ลำลูกกา,13.9745362,100.6901456,1
12/83 ม.6 มบ วรางกูลคลอง 4 ต.ลาดสวาย อ.ลำลูกกา จ.ปทุมธานี 12150 ,13.9743489,100.675058,1
37/10 ม.6 ต.ลาดสวาย อ.ลำลูกกา จ.ปทุมธานี ,13.98007807,100.688464,1
โครงการ พลัม พหลโยธิน89 เฟส1,13.97005227,100.6175183,1
โครงการ พลัม พหลโยธิน89 เฟส2,13.96999468,100.6172329,1
"บริษัทอาร์ บี เอส แมนูแฟคตอริ่ง จำกัด
ที่อยู่ 31/2-3 หมู่ 17 ต.บางเสาธง อ.บางเสาธง จ.สมุทรปราการ",13.57589914,100.7953886,1
501/259 ซ.แพรกษา 3/1 (บดิพัฒน์) ต.แพรกษา อ.เมือง จ.สมุทรปราการ,13.57832421,100.6311987,1
โรงพยาบาลสมเด็จพระนางเจ้าสิริกิติ์,12.68852919,100.9817135,1
The plum condo คลองถนน ,13.89331936,100.4070757,1
พลัมคอนโด บางใหญ่ บางรักพัฒนา อำเภอบางบัวทอง นนทบุรี,13.88958034,100.406,1
คอนโดลุมพินี วิลล์ ประชาชื่น - พงษ์เพชร ,13.85256149,100.5438828,1
บ้านเลขที่ 123/138 หมู่บ้านลุมพินี ทาวน์วิลล์ ราชพฤกษ์ - นครอินทร์ ,13.81623299,100.4618171,1
บ้านเลขที่ 8 ซอยสามัคคี 60/8 ตำบลท่าทรายอำเภอเมืองจังหวัดนนทบุรี เป็นบ้านผู้สูงอายุในซอยสามัคคี 58 พักอาศัยกันอยู่ 3 คน มีรอยร้าวทั้งภายในและภายนอก/ เป็นบ้านผู้สูงอายุในซอยสามัคคี 58 พักอาศัยกันอยู่ 3 คน มีรอยร้าวทั้งภายในและภายนอก,13.87828994,100.5452592,1
"อาคารชุด บ้านสวนธน (3) เอ.เอ.
อาคาร บ้านสวนธน (3) 1-2AA
(อาคาร 1AA และ อาคาร 2AA)",13.86824475,100.4996506,1
หมู่บ้านดิเอ็มเมอร์รัลด์ ซอยเรวดี (บ้านเลขที่ 85) ,13.85395277,100.50216,1
บริษัท ประยงค์วูดคราฟท์ จำกัด ,13.8707484,100.471167,1
โรงเรียน เตรียมอุดมพัฒนาการ นนทบุรี,13.84843077,100.4436287,1
บ.แพนฟู้ด จำกัด พระราม 2 อาคารห้องเย็น,13.58154127,100.3089145,1
บ้านเอื้ออาทร คลองสี่วาพาสวัวดิ,13.59761361,100.3002392,1
ธนาคารแห่งประเทศไทย,13.76916377,100.5006514,1
อาคารสุขุมวิท,13.7613451,100.5295893,1
อาคารจอดรถกรมทางหลวง,13.76165519,100.5247387,1
อาคารเฉลียว วัชรพุกก์,13.76036303,100.5259296,1
อาคารสำนักงานตรวจคนเข้าเมือง,13.91749711,100.5509609,4
